{"Edu-Fit":{"name":"Edu-Fit","type":"GYM","contentName":[],"location":{"geoWidth":45.22705594839229,"geoLen":19.8513918395197,"address":{"street":"Kamenicka","number":"21","city":"Sremska Kamenica","postalCode":"21208","deleted":false}},"logoPath":"images\\Edu-fit.jpg","averageRating":0.0,"startWorkingTime":{"day":0,"month":0,"year":0,"hours":10,"minutes":0},"endWorkingTime":{"day":0,"month":0,"year":0,"hours":22,"minutes":0},"deleted":false},"Bazeni Sajmiste":{"name":"Bazeni Sajmiste","type":"POOL","contentName":[],"location":{"geoWidth":45.25286254766257,"geoLen":19.825347447893332,"address":{"street":"Petefi Sandora","number":"44","city":"Novi Sad","postalCode":"21000","deleted":false}},"logoPath":"images\\Sajmiste.jfif","averageRating":0.0,"startWorkingTime":{"day":0,"month":0,"year":0,"hours":7,"minutes":0},"endWorkingTime":{"day":0,"month":0,"year":0,"hours":17,"minutes":0},"deleted":false},"Cair":{"name":"Cair","type":"SPORTS_CENTER","contentName":["Pilates"],"location":{"geoWidth":43.31674137875896,"geoLen":21.90773007351234,"address":{"street":"Nisavska","number":"14","city":"Nis","postalCode":"18101","deleted":false}},"logoPath":"images\\Sportska_hala_ÄŒair.jpg","averageRating":0.0,"startWorkingTime":{"day":0,"month":0,"year":0,"hours":8,"minutes":0},"endWorkingTime":{"day":0,"month":0,"year":0,"hours":21,"minutes":0},"deleted":false}}